{"type":"FeatureCollection","features":[{"type":"Feature","properties":{"OBJECTID":3202,"Address":"40 Gibson St., Dorchester, MA","Notes":"lower roof","AP_Name":"DOT-BPDC11-AP1","Neighborhood":"Dorchester"},"geometry":{"type":"Point","coordinates":[-71.05920502897212,42.29797441679454]}},{"type":"Feature","properties":{"OBJECTID":3203,"Address":"500 Columbia Rd., Dorchester, MA","Notes":null,"AP_Name":"DOT-BPL-AP3","Neighborhood":"Dorchester"},"geometry":{"type":"Point","coordinates":[-71.0678022035835,42.314698685398]}},{"type":"Feature","properties":{"OBJECTID":3204,"Address":"500 Columbia Rd., Dorchester, MA","Notes":null,"AP_Name":"DOT-BPL-AP2","Neighborhood":"Dorchester"},"geometry":{"type":"Point","coordinates":[-71.06764641145871,42.31499406621418]}},{"type":"Feature","properties":{"OBJECTID":3205,"Address":"641 Columbia Rd., Dorchester, MA","Notes":null,"AP_Name":"DOT-BFD21-AP1","Neighborhood":"Dorchester"},"geometry":{"type":"Point","coordinates":[-71.06323370712005,42.31838143019269]}},{"type":"Feature","properties":{"OBJECTID":3206,"Address":"641 Columbia Rd., Dorchester, MA","Notes":null,"AP_Name":"DOT-BFD21-AP2","Neighborhood":"Dorchester"},"geometry":{"type":"Point","coordinates":[-71.06328215416166,42.318291816482635]}},{"type":"Feature","properties":{"OBJECTID":3207,"Address":"641 Columbia Rd., Dorchester, MA","Notes":null,"AP_Name":"DOT-BFD21-AP3","Neighborhood":"Dorchester"},"geometry":{"type":"Point","coordinates":[-71.06314842466026,42.318299660360886]}},{"type":"Feature","properties":{"OBJECTID":3208,"Address":null,"Notes":null,"AP_Name":"DOT-BPL-AP5","Neighborhood":"Dorchester"},"geometry":{"type":"Point","coordinates":[-71.06835412759575,42.3130983765907]}},{"type":"Feature","properties":{"OBJECTID":3209,"Address":"85 Olney St., Dorchester, MA","Notes":"need photo","AP_Name":"DOT-HOLLAND-AP1","Neighborhood":"Dorchester"},"geometry":{"type":"Point","coordinates":[-71.07387168337706,42.30548123961967]}},{"type":"Feature","properties":{"OBJECTID":3211,"Address":"85 Olney St., Dorchester, MA","Notes":"need photo","AP_Name":"DOT-HOLLAND-AP2","Neighborhood":"Dorchester"},"geometry":{"type":"Point","coordinates":[-71.07378636408633,42.30569923370496]}},{"type":"Feature","properties":{"OBJECTID":3212,"Address":"77 Mt. Ida Rd., Dorchester, MA","Notes":"need address verification","AP_Name":"DOT-MTIDA-AP1","Neighborhood":"Dorchester"},"geometry":{"type":"Point","coordinates":[-71.06343193925213,42.303776023811054]}},{"type":"Feature","properties":{"OBJECTID":3602,"Address":"1 Parish St., Dorchester, MA","Notes":null,"AP_Name":"DOT-MATHER-AP1","Neighborhood":"Dorchester"},"geometry":{"type":"Point","coordinates":[-71.06097644203369,42.308310045609645]}},{"type":"Feature","properties":{"OBJECTID":3603,"Address":"1 Parish St., Dorchester, MA","Notes":null,"AP_Name":"DOT-MATHER-AP3","Neighborhood":"Dorchester"},"geometry":{"type":"Point","coordinates":[-71.06109516427996,42.308483572127024]}},{"type":"Feature","properties":{"OBJECTID":3604,"Address":"1 Parish St., Dorchester, MA","Notes":null,"AP_Name":"DOT-MATHER-AP2","Neighborhood":"Dorchester"},"geometry":{"type":"Point","coordinates":[-71.06072616600564,42.30836266085814]}},{"type":"Feature","properties":{"OBJECTID":3605,"Address":"11 Charles St., Dorchester, MA","Notes":null,"AP_Name":"DOT-CLEVELAND-AP1","Neighborhood":"Dorchester"},"geometry":{"type":"Point","coordinates":[-71.06195296554476,42.300970500377666]}},{"type":"Feature","properties":{"OBJECTID":3606,"Address":"88-98 Linden St., Dorchester, MA","Notes":null,"AP_Name":"DOT-LINDEN-AP1","Neighborhood":"Dorchester"},"geometry":{"type":"Point","coordinates":[-71.06166030610329,42.30515979022657]}},{"type":"Feature","properties":{"OBJECTID":3607,"Address":"40 School St., Dorchester, MA","Notes":null,"AP_Name":"DOT-HOLMES-AP1","Neighborhood":"Dorchester"},"geometry":{"type":"Point","coordinates":[-71.07521522258061,42.29654762029108]}},{"type":"Feature","properties":{"OBJECTID":3608,"Address":"189 Glenway St., Dorchester, MA","Notes":null,"AP_Name":"DOT-GREENWOOD-AP1","Neighborhood":"Dorchester"},"geometry":{"type":"Point","coordinates":[-71.08065458630466,42.29658622132234]}},{"type":"Feature","properties":{"OBJECTID":3610,"Address":"125 Magazine St., Roxbury, MA","Notes":"need location verification","AP_Name":"ROX-MAGAZINE-AP2","Neighborhood":"Roxbury"},"geometry":{"type":"Point","coordinates":[-71.06880420960422,42.3274546050151]}},{"type":"Feature","properties":{"OBJECTID":3611,"Address":"150 Norfolk Ave., Roxbury, MA - fire escape","Notes":"need location verification","AP_Name":"ROX-MASON-AP1","Neighborhood":"Roxbury"},"geometry":{"type":"Point","coordinates":[-71.0710342746021,42.32607834611086]}},{"type":"Feature","properties":{"OBJECTID":3612,"Address":"150 Norfolk Ave., Roxbury, MA - fire escape","Notes":"need location verification","AP_Name":"ROX-MASON-AP2","Neighborhood":"Roxbury"},"geometry":{"type":"Point","coordinates":[-71.07127268927515,42.326206724867625]}},{"type":"Feature","properties":{"OBJECTID":3613,"Address":"6 Shirley St., Roxbury, MA","Notes":"need location verification","AP_Name":"ROX-EMERSON-AP2","Neighborhood":"Roxbury"},"geometry":{"type":"Point","coordinates":[-71.07272586157092,42.32355142979871]}},{"type":"Feature","properties":{"OBJECTID":3614,"Address":"339 Dudley St., Roxbury, MA","Notes":"need location verification","AP_Name":"ROX-VINE-AP3","Neighborhood":"Roxbury"},"geometry":{"type":"Point","coordinates":[-71.07677140738495,42.326639254660435]}},{"type":"Feature","properties":{"OBJECTID":3615,"Address":"906 Albany St., Roxbury, MA","Notes":"need location verification","AP_Name":"ROX-ORCHARD-AP1","Neighborhood":"Roxbury"},"geometry":{"type":"Point","coordinates":[-71.077727775396,42.33047266055183]}},{"type":"Feature","properties":{"OBJECTID":3619,"Address":"35 Brookford St., Roxbury, MA","Notes":"need location verification","AP_Name":"ROX-WINTHROP-AP3","Neighborhood":"Roxbury"},"geometry":{"type":"Point","coordinates":[-71.07576950287385,42.31801664910795]}},{"type":"Feature","properties":{"OBJECTID":3620,"Address":"Brookford St. & Judson St., Roxbury, MA","Notes":"need location verification","AP_Name":"ROX-WINTHROP-AP4","Neighborhood":"Roxbury"},"geometry":{"type":"Point","coordinates":[-71.07581834337753,42.31843996060171]}},{"type":"Feature","properties":{"OBJECTID":3621,"Address":"205 Townsend St., Roxbury, MA","Notes":"need location verification","AP_Name":"ROX-BLA-AP1","Neighborhood":"Roxbury"},"geometry":{"type":"Point","coordinates":[-71.08508393373057,42.316317318692356]}},{"type":"Feature","properties":{"OBJECTID":3622,"Address":"Humboldt Ave. & Waumbeck St., Roxbury, MA","Notes":"need location verification","AP_Name":"ROX-TROTTER-AP2","Neighborhood":"Roxbury"},"geometry":{"type":"Point","coordinates":[-71.08836391190329,42.314593827475456]}},{"type":"Feature","properties":{"OBJECTID":3623,"Address":"135 Humboldt Ave., Roxbury, MA","Notes":"need location verification","AP_Name":"ROX-TROTTER-AP1","Neighborhood":"Roxbury"},"geometry":{"type":"Point","coordinates":[-71.08806347754305,42.31522687226796]}},{"type":"Feature","properties":{"OBJECTID":3626,"Address":"1990 Columbus Ave., Roxbury, MA","Notes":"need location verification","AP_Name":"ROX-EGLESTON-AP2","Neighborhood":"Roxbury"},"geometry":{"type":"Point","coordinates":[-71.0973460900724,42.31530555196773]}},{"type":"Feature","properties":{"OBJECTID":3628,"Address":"Washington St. & Cobden St., Roxbury, MA","Notes":"need location verification","AP_Name":"ROX-EGLESTON-AP1","Neighborhood":"Roxbury"},"geometry":{"type":"Point","coordinates":[-71.09637252022198,42.31766205262535]}},{"type":"Feature","properties":{"OBJECTID":3629,"Address":"Faneuil Hall Square, Boston, MA","Notes":"need photo,S Market furthest from city hall","AP_Name":"DT-QUINCYMARKET-AP3","Neighborhood":"Downtown"},"geometry":{"type":"Point","coordinates":[-71.05384134831075,42.359953364791444]}},{"type":"Feature","properties":{"OBJECTID":3630,"Address":"1 City Hall Square, Boston, MA","Notes":"need photo, right side facing Faneuil Hall","AP_Name":"DT-CITYHALL-AP1","Neighborhood":"Downtown"},"geometry":{"type":"Point","coordinates":[-71.0583704491574,42.36061509846908]}},{"type":"Feature","properties":{"OBJECTID":3631,"Address":"1 City Hall Square, Boston, MA","Notes":"need photo, right side facing plaza","AP_Name":"DT-CITYHALL-AP3","Neighborhood":"Downtown"},"geometry":{"type":"Point","coordinates":[-71.05750594556227,42.36017943164575]}},{"type":"Feature","properties":{"OBJECTID":3632,"Address":"1 City Hall Square, Boston, MA","Notes":"need photo, light pole facing Court St","AP_Name":"DT-CITYHALL-MARKETPOLE","Neighborhood":"Downtown"},"geometry":{"type":"Point","coordinates":[-71.05992972057305,42.3601907246452]}},{"type":"Feature","properties":{"OBJECTID":4005,"Address":"500 Columbia Rd., Dorchester, MA","Notes":null,"AP_Name":"DOT-BPL-AP1","Neighborhood":"Dorchester"},"geometry":{"type":"Point","coordinates":[-71.06781624335308,42.31480047224551]}},{"type":"Feature","properties":{"OBJECTID":4006,"Address":"500 Columbia Rd., Dorchester, MA","Notes":null,"AP_Name":"DOT-BPL-AP4","Neighborhood":"Dorchester"},"geometry":{"type":"Point","coordinates":[-71.06744802032486,42.31481819086691]}},{"type":"Feature","properties":{"OBJECTID":4007,"Address":"35 Westville St., Dorchester, MA","Notes":null,"AP_Name":"DOT-MARSHALL-AP2","Neighborhood":"Dorchester"},"geometry":{"type":"Point","coordinates":[-71.0706611809084,42.29982848527911]}},{"type":"Feature","properties":{"OBJECTID":4008,"Address":"35 Westville St., Dorchester, MA","Notes":null,"AP_Name":"DOT-MARSHALL-AP1","Neighborhood":"Dorchester"},"geometry":{"type":"Point","coordinates":[-71.07122501837796,42.29976588988864]}},{"type":"Feature","properties":{"OBJECTID":4009,"Address":"40 School St., Dorchester, MA","Notes":null,"AP_Name":"DOT-HOLMES-AP2","Neighborhood":"Dorchester"},"geometry":{"type":"Point","coordinates":[-71.0753950428426,42.296514431916904]}},{"type":"Feature","properties":{"OBJECTID":4010,"Address":"189 Glenway St., Dorchester, MA","Notes":null,"AP_Name":"DOT-GREENWOOD-AP2","Neighborhood":"Dorchester"},"geometry":{"type":"Point","coordinates":[-71.08062391063433,42.29644633416625]}},{"type":"Feature","properties":{"OBJECTID":4406,"Address":"77 Lawrence Ave., Roxbury, MA","Notes":"need location verification","AP_Name":"ROX-MLKSCHOOL-AP3","Neighborhood":"Roxbury"},"geometry":{"type":"Point","coordinates":[-71.07642169324484,42.31115384803552]}},{"type":"Feature","properties":{"OBJECTID":4407,"Address":"77 Lawrence Ave., Roxbury, MA","Notes":"need location verification","AP_Name":"ROX-MLKSCHOOL-AP1","Neighborhood":"Roxbury"},"geometry":{"type":"Point","coordinates":[-71.07613084390869,42.31103518525541]}},{"type":"Feature","properties":{"OBJECTID":4409,"Address":"Fernboro St. & Intervale St., Roxbury, MA","Notes":"need location verification","AP_Name":"ROX-MLKSCHOOL-AP4","Neighborhood":"Roxbury"},"geometry":{"type":"Point","coordinates":[-71.07776449043998,42.310683235901436]}},{"type":"Feature","properties":{"OBJECTID":4805,"Address":"77 Lawrence Ave., Roxbury, MA","Notes":"need location verification","AP_Name":"ROX-MLKSCHOOL-AP2","Neighborhood":"Roxbury"},"geometry":{"type":"Point","coordinates":[-71.07673981004314,42.31095782882962]}},{"type":"Feature","properties":{"OBJECTID":4806,"Address":"125 Magazine St., Roxbury, MA","Notes":"need location verification","AP_Name":"ROX-MAGAZINE-AP1","Neighborhood":"Roxbury"},"geometry":{"type":"Point","coordinates":[-71.06886535433236,42.327537503262896]}},{"type":"Feature","properties":{"OBJECTID":4807,"Address":"6 Shirley St., Roxbury, MA","Notes":"need location verification","AP_Name":"ROX-EMERSON-AP1","Neighborhood":"Roxbury"},"geometry":{"type":"Point","coordinates":[-71.07302029518507,42.323464893265125]}},{"type":"Feature","properties":{"OBJECTID":4809,"Address":"339 Dudley St., Roxbury, MA","Notes":"need location verification","AP_Name":"ROX-VINE-AP1","Neighborhood":"Roxbury"},"geometry":{"type":"Point","coordinates":[-71.07672951355336,42.3268760967687]}},{"type":"Feature","properties":{"OBJECTID":4810,"Address":"339 Dudley St., Roxbury, MA","Notes":"need location verification","AP_Name":"ROX-VINE-AP2","Neighborhood":"Roxbury"},"geometry":{"type":"Point","coordinates":[-71.07657895860669,42.32678748406013]}},{"type":"Feature","properties":{"OBJECTID":4811,"Address":"Adams St. & Dudley St., Roxbury, MA","Notes":"need location verification","AP_Name":"ROX-VINE-AP5","Neighborhood":"Roxbury"},"geometry":{"type":"Point","coordinates":[-71.07750582504549,42.32774946305669]}},{"type":"Feature","properties":{"OBJECTID":4812,"Address":"Dunmore St. & Dudley St., Roxbury, MA","Notes":"need location verification","AP_Name":"ROX-VINE-AP4","Neighborhood":"Roxbury"},"geometry":{"type":"Point","coordinates":[-71.07535510823666,42.3260898750319]}},{"type":"Feature","properties":{"OBJECTID":5207,"Address":"Rockland St., Roxbury, MA","Notes":"need address verification","AP_Name":"ROX-SHELBOURNE-AP3","Neighborhood":"Roxbury"},"geometry":{"type":"Point","coordinates":[-71.08695166595355,42.322746237332076]}},{"type":"Feature","properties":{"OBJECTID":5210,"Address":"35 Brookford St., Roxbury, MA","Notes":"need location verification","AP_Name":"ROX-WINTHROP-AP1","Neighborhood":"Roxbury"},"geometry":{"type":"Point","coordinates":[-71.07569180668662,42.3182134015587]}},{"type":"Feature","properties":{"OBJECTID":5211,"Address":"35 Brookford St., Roxbury, MA","Notes":"need location verification","AP_Name":"ROX-WINTHROP-AP2","Neighborhood":"Roxbury"},"geometry":{"type":"Point","coordinates":[-71.07558085396923,42.3181419503295]}},{"type":"Feature","properties":{"OBJECTID":5213,"Address":"Waverly St. & Blue Hill Ave., Roxbury, MA","Notes":"need location verification","AP_Name":"ROX-WINTHROP-AP5","Neighborhood":"Roxbury"},"geometry":{"type":"Point","coordinates":[-71.07779200493881,42.31972638503895]}},{"type":"Feature","properties":{"OBJECTID":5214,"Address":"205 Townsend St., Roxbury, MA","Notes":"need location verification","AP_Name":"ROX-BLA-AP2","Neighborhood":"Roxbury"},"geometry":{"type":"Point","coordinates":[-71.08392321336545,42.31600821597219]}},{"type":"Feature","properties":{"OBJECTID":5215,"Address":"Townsend St. & Humboldt Ave., Roxbury, MA","Notes":"need location verification","AP_Name":"ROX-BLA-AP3","Neighborhood":"Roxbury"},"geometry":{"type":"Point","coordinates":[-71.08656016757632,42.31701692917029]}},{"type":"Feature","properties":{"OBJECTID":5217,"Address":"Crawford St. & Waumbeck St., Roxbury, MA","Notes":"need location verification","AP_Name":"ROX-TROTTER-AP3","Neighborhood":"Roxbury"},"geometry":{"type":"Point","coordinates":[-71.08946379476411,42.31323581142132]}},{"type":"Feature","properties":{"OBJECTID":5218,"Address":"Elm Hill Ave. & Crawford St., Roxbury, MA","Notes":"need location verification","AP_Name":"ROX-BLA-AP4","Neighborhood":"Roxbury"},"geometry":{"type":"Point","coordinates":[-71.08596352093765,42.311659224735216]}},{"type":"Feature","properties":{"OBJECTID":5220,"Address":"Holborn St. & Blue Hill Ave., Roxbury, MA","Notes":"need location verification","AP_Name":"ROX-MLKSCHOOL-AP6","Neighborhood":"Roxbury"},"geometry":{"type":"Point","coordinates":[-71.07946707638114,42.313649440011204]}},{"type":"Feature","properties":{"OBJECTID":5221,"Address":"Intervale St. & Blue Hill Ave., Roxbury, MA","Notes":"need location verification","AP_Name":"ROX-MLKSCHOOL-AP5","Neighborhood":"Roxbury"},"geometry":{"type":"Point","coordinates":[-71.08060423483467,42.31193237852627]}},{"type":"Feature","properties":{"OBJECTID":5224,"Address":"1990 Columbus Ave., Roxbury, MA","Notes":"need location verification","AP_Name":"ROX-EGLESTON-AP3","Neighborhood":"Roxbury"},"geometry":{"type":"Point","coordinates":[-71.09720445809147,42.315379868047906]}},{"type":"Feature","properties":{"OBJECTID":5229,"Address":"2875 Washington St., Roxbury, MA","Notes":"need location verification","AP_Name":"ROX-COUNCIL-AP2","Neighborhood":"Roxbury"},"geometry":{"type":"Point","coordinates":[-71.09454525620424,42.320345144243134]}},{"type":"Feature","properties":{"OBJECTID":5230,"Address":"2875 Washington St., Roxbury, MA","Notes":"need location verification","AP_Name":"ROX-COUNCIL-AP1","Neighborhood":"Roxbury"},"geometry":{"type":"Point","coordinates":[-71.09474016007819,42.320465052789785]}},{"type":"Feature","properties":{"OBJECTID":5231,"Address":"Washington St. & Valentine St., Roxbury, MA","Notes":"need location verification","AP_Name":"ROX-COUNCIL-AP3","Neighborhood":"Roxbury"},"geometry":{"type":"Point","coordinates":[-71.09194751076059,42.321692432271014]}},{"type":"Feature","properties":{"OBJECTID":5232,"Address":"2730 Washington St., Roxbury, MA","Notes":"need location verification","AP_Name":"ROX-SHELBOURNE-AP2","Neighborhood":"Roxbury"},"geometry":{"type":"Point","coordinates":[-71.09028814366607,42.32222152417688]}},{"type":"Feature","properties":{"OBJECTID":5233,"Address":"Faneuil Hall Square, Boston, MA","Notes":"need photo, N Market closest to city hall","AP_Name":"DT-QUINCYMARKET-AP1","Neighborhood":"Downtown"},"geometry":{"type":"Point","coordinates":[-71.05573780506326,42.360215260841876]}},{"type":"Feature","properties":{"OBJECTID":5234,"Address":"Faneuil Hall Square, Boston, MA","Notes":"need photo, N Market furthest from city hall","AP_Name":"DT-QUINCYMARKET-AP2","Neighborhood":"Downtown"},"geometry":{"type":"Point","coordinates":[-71.05400937099813,42.36041011364151]}},{"type":"Feature","properties":{"OBJECTID":5235,"Address":"Faneuil Hall Square, Boston, MA","Notes":"need photo,S Market closest to city hall","AP_Name":"DT-QUINCYMARKET-AP4","Neighborhood":"Downtown"},"geometry":{"type":"Point","coordinates":[-71.05512061664899,42.35989481061476]}},{"type":"Feature","properties":{"OBJECTID":5236,"Address":"1 City Hall Square, Boston, MA","Notes":"need photo, left side facing Faneuil Hall","AP_Name":"DT-CITYHALL-AP2","Neighborhood":"Downtown"},"geometry":{"type":"Point","coordinates":[-71.05758244070196,42.360643400133426]}},{"type":"Feature","properties":{"OBJECTID":5237,"Address":"1 City Hall Square, Boston, MA","Notes":"need photo, left side facing plaza","AP_Name":"DT-CITYHALL-AP4","Neighborhood":"Downtown"},"geometry":{"type":"Point","coordinates":[-71.05839262137525,42.36013649459836]}},{"type":"Feature","properties":{"OBJECTID":5623,"Address":"Lawrence Ave. & Magnolia St., Roxbury, MA","Notes":"need location verification","AP_Name":"ROX-MLKSCHOOL-AP7","Neighborhood":"Roxbury"},"geometry":{"type":"Point","coordinates":[-71.07439603899157,42.310630453857904]}},{"type":"Feature","properties":{"OBJECTID":5626,"Address":"2730 Washington St., Roxbury, MA","Notes":"need address verification","AP_Name":"ROX-SHELBOURNE-AP1","Neighborhood":"Roxbury"},"geometry":{"type":"Point","coordinates":[-71.0902112694373,42.32268643702663]}},{"type":"Feature","properties":{"OBJECTID":5627,"Address":"Cross St. & Atlantic St., Boston, MA","Notes":null,"AP_Name":"CP-GREENWAY-AP1","Neighborhood":null},"geometry":{"type":"Point","coordinates":[-71.05276274564069,42.36090948374365]}},{"type":"Feature","properties":{"OBJECTID":6027,"Address":"1249 Hyde Park Ave., Hyde Park, MA","Notes":"need photo","AP_Name":"HP-BPDE18-AP4","Neighborhood":"Hyde Park"},"geometry":{"type":"Point","coordinates":[-71.12435276858464,42.256383884618394]}},{"type":"Feature","properties":{"OBJECTID":6427,"Address":"Firth St. & Washington St., Roslindale, MA","Notes":"need location verification & photo","AP_Name":"ROS-COMMUNITY-AP3","Neighborhood":"Roslindale"},"geometry":{"type":"Point","coordinates":[-71.12575828974617,42.28864617872072]}},{"type":"Feature","properties":{"OBJECTID":7230,"Address":"460 Cambridge St., Allston, MA","Notes":"need address verification & photo","AP_Name":"AB-BFDE41-AP1","Neighborhood":"Allston Brighton"},"geometry":{"type":"Point","coordinates":[-71.1361816414138,42.35380190956076]}},{"type":"Feature","properties":{"OBJECTID":7630,"Address":"40 Armington St., Allston, MA","Notes":"need address verification & photo","AP_Name":"AB-JACKSON-AP1","Neighborhood":"Allston Brighton"},"geometry":{"type":"Point","coordinates":[-71.1375491225163,42.352249616717096]}},{"type":"Feature","properties":{"OBJECTID":8030,"Address":"425 Faneuil St., Brighton, MA","Notes":"need address verification & photo","AP_Name":"AB-OAKSQUARE-AP1","Neighborhood":"Allston Brighton"},"geometry":{"type":"Point","coordinates":[-71.16817528308985,42.351224568700495]}},{"type":"Feature","properties":{"OBJECTID":8031,"Address":"154 Maverick St., East Boston","Notes":"need photo","AP_Name":"EB-154MAVERICK-AP1","Neighborhood":"East Boston"},"geometry":{"type":"Point","coordinates":[-71.03798915129275,42.36984834765583]}},{"type":"Feature","properties":{"OBJECTID":8032,"Address":"69 Paris St., East Boston MA","Notes":"need photo","AP_Name":"EB-BPDA7-AP2","Neighborhood":"East Boston"},"geometry":{"type":"Point","coordinates":[-71.03841025904005,42.37106902793378]}},{"type":"Feature","properties":{"OBJECTID":8430,"Address":"240 Medford St., Charlestown, MA","Notes":"need address verification & photo","AP_Name":"CHL-HIGHSCHOOL-AP1","Neighborhood":"Charlestown"},"geometry":{"type":"Point","coordinates":[-71.06086944010694,42.38021110103665]}},{"type":"Feature","properties":{"OBJECTID":8831,"Address":"10 Gove St., East Boston MA","Notes":"need photo","AP_Name":"EB-10GOVE-AP1","Neighborhood":"East Boston"},"geometry":{"type":"Point","coordinates":[-71.03830185484313,42.372390164975]}},{"type":"Feature","properties":{"OBJECTID":8832,"Address":"69 Paris St., East Boston MA","Notes":"need photo","AP_Name":"EB-BPDA7-AP4","Neighborhood":"East Boston"},"geometry":{"type":"Point","coordinates":[-71.03870396052726,42.37125529768147]}},{"type":"Feature","properties":{"OBJECTID":9230,"Address":"110 Atlantic Ave., Boston, MA","Notes":"need address verification & photo","AP_Name":"CP-COLUMBUS-AP1","Neighborhood":"Columbus Park"},"geometry":{"type":"Point","coordinates":[-71.05197814719007,42.361389137790574]}},{"type":"Feature","properties":{"OBJECTID":9630,"Address":"10 Gove St., East Boston MA","Notes":"need photo","AP_Name":"EB-10GOVE-AP2","Neighborhood":"East Boston"},"geometry":{"type":"Point","coordinates":[-71.03860226135562,42.3723505333254]}},{"type":"Feature","properties":{"OBJECTID":9631,"Address":"69 Paris St., East Boston MA","Notes":"need photo","AP_Name":"EB-BPDA7-AP1","Neighborhood":"East Boston"},"geometry":{"type":"Point","coordinates":[-71.0384987709433,42.37099570811885]}},{"type":"Feature","properties":{"OBJECTID":9632,"Address":"69 Paris St., East Boston MA","Notes":"need photo","AP_Name":"EB-BPDA7-AP3","Neighborhood":"East Boston"},"geometry":{"type":"Point","coordinates":[-71.03878844977467,42.3711899049616]}},{"type":"Feature","properties":{"OBJECTID":10031,"Address":"239 Sumner St., East Boston, MA","Notes":"need photo","AP_Name":"EB-ENGINE9-AP1","Neighborhood":"East Boston"},"geometry":{"type":"Point","coordinates":[-71.03856443060405,42.36811400423077]}},{"type":"Feature","properties":{"OBJECTID":10032,"Address":"239 Sumner St., East Boston, MA","Notes":"need photo","AP_Name":"EB-ENGINE9-AP2","Neighborhood":"East Boston"},"geometry":{"type":"Point","coordinates":[-71.03869049388283,42.368169491744574]}},{"type":"Feature","properties":{"OBJECTID":10033,"Address":"1249 Hyde Park Ave., Hyde Park, MA","Notes":"need photo","AP_Name":"HP-BPDE18-AP3","Neighborhood":"Hyde Park"},"geometry":{"type":"Point","coordinates":[-71.12418600713193,42.256401499333556]}},{"type":"Feature","properties":{"OBJECTID":10034,"Address":"27 Maple St., Hyde Park, MA","Notes":"need address verification & photo","AP_Name":"HP-MAPLE-AP1","Neighborhood":"Hyde Park"},"geometry":{"type":"Point","coordinates":[-71.12236326792828,42.25516829315836]}},{"type":"Feature","properties":{"OBJECTID":10035,"Address":"Boston Common, Boston, MA","Notes":"need photo, left side of building","AP_Name":"PARKS-FROGPOND-AP1","Neighborhood":"Parks"},"geometry":{"type":"Point","coordinates":[-71.06551581781056,42.35583966307764]}},{"type":"Feature","properties":{"OBJECTID":10036,"Address":"Boston Common, Boston, MA","Notes":"need photo, left side of building","AP_Name":"PARKS-FROGPOND-AP2","Neighborhood":"Parks"},"geometry":{"type":"Point","coordinates":[-71.06584841185798,42.35591894585752]}},{"type":"Feature","properties":{"OBJECTID":10037,"Address":"420 West St., Hyde Park, MA","Notes":"need location verification & photo, maintenance shed","AP_Name":"PARKS-GEORGEWRIGHT-AP1","Neighborhood":"Parks"},"geometry":{"type":"Point","coordinates":[-71.13174271076043,42.26848743479223]}},{"type":"Feature","properties":{"OBJECTID":10038,"Address":"420 West St., Hyde Park, MA","Notes":"need location verification & photo, clubhouse exterior","AP_Name":"PARKS-GEORGEWRIGHT-AP2","Neighborhood":"Parks"},"geometry":{"type":"Point","coordinates":[-71.13283168807371,42.268412011055695]}},{"type":"Feature","properties":{"OBJECTID":10039,"Address":"420 West St., Hyde Park, MA","Notes":"need location verification & photos, clubhouse interior","AP_Name":"PARKS-GEORGEWRIGHT-AP3","Neighborhood":"Parks"},"geometry":{"type":"Point","coordinates":[-71.13281023001653,42.26828498087592]}},{"type":"Feature","properties":{"OBJECTID":10040,"Address":"507 Jamaicaway, Jamaica Plain, MA","Notes":"need location verification & photo - boat house","AP_Name":"PARKS-JAMAICAPOND-AP1","Neighborhood":"Parks"},"geometry":{"type":"Point","coordinates":[-71.11748671220445,42.3158533418793]}},{"type":"Feature","properties":{"OBJECTID":10041,"Address":"507 Jamaicaway, Jamaica Plain, MA","Notes":"need location verification & photo - inside boathouse","AP_Name":"PARKS-JAMAICAPOND-AP3","Neighborhood":"Parks"},"geometry":{"type":"Point","coordinates":[-71.11742770367009,42.31586524199952]}},{"type":"Feature","properties":{"OBJECTID":10430,"Address":"276 Meridian St., East Boston, MA","Notes":"need photo","AP_Name":"EB-BPL-AP1","Neighborhood":"East Boston"},"geometry":{"type":"Point","coordinates":[-71.03961049090465,42.37653763609952]}},{"type":"Feature","properties":{"OBJECTID":10431,"Address":"1249 Hyde Park Ave., Hyde Park, MA","Notes":"need photo","AP_Name":"HP-BPDE18-AP1","Neighborhood":"Hyde Park"},"geometry":{"type":"Point","coordinates":[-71.12430938893958,42.256584138767046]}},{"type":"Feature","properties":{"OBJECTID":10432,"Address":"1179 River St., Hyde Park, MA","Notes":"need address verification & photo","AP_Name":"HP-COMMUNITY-AP2","Neighborhood":"Hyde Park"},"geometry":{"type":"Point","coordinates":[-71.1210847847176,42.25638342917422]}},{"type":"Feature","properties":{"OBJECTID":10830,"Address":"276 Meridian St., East Boston, MA","Notes":"need photo","AP_Name":"EB-BPL-AP2","Neighborhood":"East Boston"},"geometry":{"type":"Point","coordinates":[-71.03961049180296,42.376579246656185]}},{"type":"Feature","properties":{"OBJECTID":10831,"Address":"1249 Hyde Park Ave., Hyde Park, MA","Notes":"need photo","AP_Name":"HP-BPDE18-AP2","Neighborhood":"Hyde Park"},"geometry":{"type":"Point","coordinates":[-71.12414309281418,42.25652061212539]}},{"type":"Feature","properties":{"OBJECTID":10832,"Address":"35 Harvard Ave., Hyde Park, MA","Notes":"need photo, north roof","AP_Name":"HP-BPL-AP1","Neighborhood":"Hyde Park"},"geometry":{"type":"Point","coordinates":[-71.12218985445088,42.25713780771358]}},{"type":"Feature","properties":{"OBJECTID":10833,"Address":"1179 River St., Hyde Park, MA","Notes":"need address verification & photo","AP_Name":"HP-COMMUNITY-AP1","Neighborhood":"Hyde Park"},"geometry":{"type":"Point","coordinates":[-71.12102041144435,42.256236522668964]}},{"type":"Feature","properties":{"OBJECTID":10834,"Address":"Boston Common, Boston, MA","Notes":"need photo","AP_Name":"PARKS-BOSTONCOMMON-AP1","Neighborhood":"Parks"},"geometry":{"type":"Point","coordinates":[-71.06698443663764,42.354818189325826]}},{"type":"Feature","properties":{"OBJECTID":10835,"Address":"Boston Common, Boston, MA","Notes":"need photo","AP_Name":"PARKS-BOSTONCOMMON-AP2","Neighborhood":"Parks"},"geometry":{"type":"Point","coordinates":[-71.06776764180125,42.356126372960134]}},{"type":"Feature","properties":{"OBJECTID":10836,"Address":"100 Jewish War Veterans Drive, Boston, MA","Notes":"Need location verification & photo","AP_Name":"PARKS-FRANKLIN-AP1","Neighborhood":"Parks"},"geometry":{"type":"Point","coordinates":[-71.09810293417401,42.304134504089255]}},{"type":"Feature","properties":{"OBJECTID":10837,"Address":"100 Jewish War Veterans Drive, Boston, MA","Notes":"need location verification & photo","AP_Name":"PARKS-FRANKLIN-AP2","Neighborhood":"Parks"},"geometry":{"type":"Point","coordinates":[-71.09664381233611,42.30432494052957]}},{"type":"Feature","properties":{"OBJECTID":11230,"Address":"60 Fairmount Ave., Hyde Park, MA","Notes":"need photo","AP_Name":"HP-BFD48-AP1","Neighborhood":"Hyde Park"},"geometry":{"type":"Point","coordinates":[-71.11977913824936,42.25506146243018]}},{"type":"Feature","properties":{"OBJECTID":11231,"Address":"60 Fairmount Ave., Hyde Park, MA","Notes":"need photo","AP_Name":"HP-BFD48-AP2","Neighborhood":"Hyde Park"},"geometry":{"type":"Point","coordinates":[-71.11973421170538,42.25509223446975]}},{"type":"Feature","properties":{"OBJECTID":11232,"Address":"35 Harvard Ave., Hyde Park, MA","Notes":"need photo, south roof","AP_Name":"HP-BPL-AP2","Neighborhood":"Hyde Park"},"geometry":{"type":"Point","coordinates":[-71.12213621065537,42.25694325796534]}},{"type":"Feature","properties":{"OBJECTID":11233,"Address":"26 Central Ave., Hyde Park, MA","Notes":"need address verification & photo","AP_Name":"HP-CENTRAL-AP1","Neighborhood":"Hyde Park"},"geometry":{"type":"Point","coordinates":[-71.12122425984356,42.25730853383012]}},{"type":"Feature","properties":{"OBJECTID":11234,"Address":"Boston Common, Boston, MA","Notes":"need photo","AP_Name":"PARKS-BOSTONCOMMON-AP3","Neighborhood":"Parks"},"geometry":{"type":"Point","coordinates":[-71.06810023584869,42.35472304791323]}},{"type":"Feature","properties":{"OBJECTID":11235,"Address":"Boston Common, Boston, MA","Notes":"need photo","AP_Name":"PARKS-BOSTONCOMMON-AP4","Neighborhood":"Parks"},"geometry":{"type":"Point","coordinates":[-71.06392671963252,42.35544453552084]}},{"type":"Feature","properties":{"OBJECTID":11236,"Address":"507 Jamaicaway, Jamaica Plain, MA","Notes":"need location verifcation & photo - bandstand","AP_Name":"PARKS-JAMAICAPOND-AP2","Neighborhood":"Parks"},"geometry":{"type":"Point","coordinates":[-71.11761009401211,42.31563913999511]}},{"type":"Feature","properties":{"OBJECTID":11630,"Address":"Cummins Highway & American Legion Highway","Notes":"need address verification & photo","AP_Name":"PARKS-MTHOPE-AP1","Neighborhood":"Parks"},"geometry":{"type":"Point","coordinates":[-71.11709063601252,42.27918885564901]}},{"type":"Feature","properties":{"OBJECTID":11631,"Address":"6 Cummings Highway, Roslindale, MA","Notes":"need location verification & photo","AP_Name":"ROS-COMMUNITY-AP1","Neighborhood":"Roslindale"},"geometry":{"type":"Point","coordinates":[-71.1282494976921,42.286133640621664]}},{"type":"Feature","properties":{"OBJECTID":12030,"Address":"4246 Washington St., Roslindale MA","Notes":"need location verification & photo","AP_Name":"ROS-BPL-AP1","Neighborhood":"Roslindale"},"geometry":{"type":"Point","coordinates":[-71.1286115960067,42.28560284310121]}},{"type":"Feature","properties":{"OBJECTID":12430,"Address":"4246 Washington St., Roslindale, MA","Notes":"need location verification & photo","AP_Name":"ROS-BPL-AP2","Neighborhood":"Roslindale"},"geometry":{"type":"Point","coordinates":[-71.1287027902794,42.28550660476466]}},{"type":"Feature","properties":{"OBJECTID":12830,"Address":"6 Cummings Highway, Roslindale, MA","Notes":"need location verification & photo","AP_Name":"ROS-COMMUNITY-AP2","Neighborhood":"Roslindale"},"geometry":{"type":"Point","coordinates":[-71.12829509527761,42.28608006510318]}},{"type":"Feature","properties":{"OBJECTID":12831,"Address":"160 Florence St., Roslindale, MA","Notes":"need location verification & photo","AP_Name":"ROS-COMMUNITY-AP4","Neighborhood":"Roslindale"},"geometry":{"type":"Point","coordinates":[-71.12249685100429,42.28751393766734]}},{"type":"Feature","properties":{"OBJECTID":13230,"Address":"174 Dudley St., Roxbury, MA","Notes":"need location verification & photo; rear roof","AP_Name":"ROX-BFDE14-AP1","Neighborhood":"Roxbury"},"geometry":{"type":"Point","coordinates":[-71.08240247787884,42.32893710714955]}},{"type":"Feature","properties":{"OBJECTID":13231,"Address":"2400 Washington St., Roxbury, MA","Notes":"need location verification & photo","AP_Name":"ROX-BPDB2-AP1","Neighborhood":"Roxbury"},"geometry":{"type":"Point","coordinates":[-71.08424271716255,42.328357624986495]}},{"type":"Feature","properties":{"OBJECTID":13232,"Address":"65 Warren St., Roxbury, MA","Notes":"need location verification & photo","AP_Name":"ROX-BPL-AP2","Neighborhood":"Roxbury"},"geometry":{"type":"Point","coordinates":[-71.08341096434604,42.32801159888779]}},{"type":"Feature","properties":{"OBJECTID":13233,"Address":"Warren St. & Whiting St., Roxbury, MA","Notes":"need location verification & photo","AP_Name":"ROX-BPL-AP5","Neighborhood":"Roxbury"},"geometry":{"type":"Point","coordinates":[-71.08281551426332,42.32406141390238]}},{"type":"Feature","properties":{"OBJECTID":13234,"Address":"85 Bradgon St., Roxbury, MA","Notes":"need location verification & photo","AP_Name":"ROX-BRAGDON-AP1","Neighborhood":"Roxbury"},"geometry":{"type":"Point","coordinates":[-71.09938868565365,42.319139700916296]}},{"type":"Feature","properties":{"OBJECTID":13235,"Address":"270 Columbia Rd., Roxbury, MA","Notes":"need address verification & photo","AP_Name":"ROX-FREDERICK-AP2","Neighborhood":"Roxbury"},"geometry":{"type":"Point","coordinates":[-71.07478521522378,42.30887172639621]}},{"type":"Feature","properties":{"OBJECTID":13236,"Address":"Devon St. & Columbia Rd., Roxbury, MA","Notes":"need address verification & photo","AP_Name":"ROX-FREDERICK-AP3","Neighborhood":"Roxbury"},"geometry":{"type":"Point","coordinates":[-71.0761477780501,42.30758239546448]}},{"type":"Feature","properties":{"OBJECTID":13237,"Address":"Columbia Terrace & Columbia Rd., Roxbury, MA","Notes":"need address verification & photo","AP_Name":"ROX-FREDERICK-AP4","Neighborhood":"Roxbury"},"geometry":{"type":"Point","coordinates":[-71.07320814908064,42.309560573273444]}},{"type":"Feature","properties":{"OBJECTID":13238,"Address":"41 Geneva Ave., Roxbury, MA","Notes":"need address verification & photo","AP_Name":"ROX-GROVEHALL-AP1","Neighborhood":"Roxbury"},"geometry":{"type":"Point","coordinates":[-71.0813800351854,42.30793355033509]}},{"type":"Feature","properties":{"OBJECTID":13239,"Address":"41 Geneva Ave., Roxbury, MA","Notes":"need address verification & photo","AP_Name":"ROX-GROVEHALL-AP2","Neighborhood":"Roxbury"},"geometry":{"type":"Point","coordinates":[-71.08079129012796,42.30763898474669]}},{"type":"Feature","properties":{"OBJECTID":13240,"Address":"Sunderland St. & 429 Blue Hill Ave., Roxbury, MA","Notes":"need address verification & photo","AP_Name":"ROX-GROVEHALL-AP5","Neighborhood":"Roxbury"},"geometry":{"type":"Point","coordinates":[-71.0819967492892,42.31027963423092]}},{"type":"Feature","properties":{"OBJECTID":13241,"Address":"1187 Columbia Rd., South Boston, MA","Notes":"need address verification & photo","AP_Name":"SB-OLLIE-AP1","Neighborhood":"South Boston"},"geometry":{"type":"Point","coordinates":[-71.05139743486791,42.32946060741419]}},{"type":"Feature","properties":{"OBJECTID":13242,"Address":"745 E. 7th St., South Boston, MA","Notes":"need address verification & photo","AP_Name":"SB-PERRY-AP2","Neighborhood":"South Boston"},"geometry":{"type":"Point","coordinates":[-71.03003243505475,42.331927785055846]}},{"type":"Feature","properties":{"OBJECTID":13243,"Address":"60 Washington St., Dorchester, MA","Notes":"need address verification & photo","AP_Name":"ROX-BURKE-AP1","Neighborhood":"Roxbury"},"geometry":{"type":"Point","coordinates":[-71.0812706859608,42.306981889303806]}},{"type":"Feature","properties":{"OBJECTID":13244,"Address":"60 Washington St., Dorchester, MA","Notes":"need address verification & photo","AP_Name":"ROX-BURKE-AP2","Neighborhood":"Roxbury"},"geometry":{"type":"Point","coordinates":[-71.08045529416056,42.307331005993404]}},{"type":"Feature","properties":{"OBJECTID":13245,"Address":"Bird St. & Glendale St., Dorchester, MA","Notes":"need address verification & photo","AP_Name":"DOT-BPL-AP6","Neighborhood":"Dorchester"},"geometry":{"type":"Point","coordinates":[-71.07004218418548,42.313520791841505]}},{"type":"Feature","properties":{"OBJECTID":13630,"Address":"174 Dudley St., Roxbury, MA","Notes":"need location verification & photo; front roof facing Dudley","AP_Name":"ROX-BFDE14-AP2","Neighborhood":"Roxbury"},"geometry":{"type":"Point","coordinates":[-71.08243734688492,42.32873683054845]}},{"type":"Feature","properties":{"OBJECTID":13631,"Address":"Dudley St. & Mt. Pleasant Ave., Roxbury, MA","Notes":"need location verification & photo","AP_Name":"ROX-BFDE14-AP3","Neighborhood":"Roxbury"},"geometry":{"type":"Point","coordinates":[-71.07926965812271,42.328560348750656]}},{"type":"Feature","properties":{"OBJECTID":13632,"Address":"Dennis St. & Winthrop St., Roxbury, MA","Notes":"need address verification & photo","AP_Name":"ROX-EMERSON-AP3","Neighborhood":"Roxbury"},"geometry":{"type":"Point","coordinates":[-71.07500233982458,42.3228214512323]}},{"type":"Feature","properties":{"OBJECTID":13633,"Address":"683 Warren St., Roxbury, MA","Notes":"need address verification & photo","AP_Name":"ROX-GROVEHALL-AP4","Neighborhood":"Roxbury"},"geometry":{"type":"Point","coordinates":[-71.08289330836692,42.3096584031047]}},{"type":"Feature","properties":{"OBJECTID":13634,"Address":"Bishop Joe L Smith Way & Geneva Ave., Roxbury, MA","Notes":"need address verification & photo","AP_Name":"ROX-GROVEHALL-AP10","Neighborhood":"Roxbury"},"geometry":{"type":"Point","coordinates":[-71.07980083644178,42.30708503725577]}},{"type":"Feature","properties":{"OBJECTID":13635,"Address":"1163 Columbia Rd., South  Boston, MA","Notes":"need address verification & photo","AP_Name":"SB-CURLEY-AP3","Neighborhood":"South Boston"},"geometry":{"type":"Point","coordinates":[-71.05144635083008,42.3290679545653]}},{"type":"Feature","properties":{"OBJECTID":13636,"Address":"360 Old Colony Ave., South Boston, MA","Notes":"need address verification & photo","AP_Name":"SB-OLLIE-AP2","Neighborhood":"South Boston"},"geometry":{"type":"Point","coordinates":[-71.05260442924995,42.32989684777629]}},{"type":"Feature","properties":{"OBJECTID":14030,"Address":"175 Dudley St., Roxbury, MA","Notes":"need location verification& photo; on traffic signal","AP_Name":"ROX-BFDE14-AP4","Neighborhood":"Roxbury"},"geometry":{"type":"Point","coordinates":[-71.08275652998346,42.32860793960551]}},{"type":"Feature","properties":{"OBJECTID":14031,"Address":"1870 Columbus Ave., Roxbury, MA","Notes":"need location verification & photo","AP_Name":"ROX-BFDE42-AP1","Neighborhood":"Roxbury"},"geometry":{"type":"Point","coordinates":[-71.09795397733022,42.318382075157984]}},{"type":"Feature","properties":{"OBJECTID":14032,"Address":"65 Warren St., Roxbury, MA","Notes":"need location verification & photo","AP_Name":"ROX-BPL-AP3","Neighborhood":"Roxbury"},"geometry":{"type":"Point","coordinates":[-71.0834538795621,42.3278410643148]}},{"type":"Feature","properties":{"OBJECTID":14033,"Address":"Warren St. & Moreland St., Roxbury, MA","Notes":"need location verification & photo","AP_Name":"ROX-BPL-AP4","Neighborhood":"Roxbury"},"geometry":{"type":"Point","coordinates":[-71.08334122723222,42.32596514885004]}},{"type":"Feature","properties":{"OBJECTID":14034,"Address":"270 Columbia Rd., Roxbury, MA","Notes":"need address verification & photo","AP_Name":"ROX-FREDERICK-AP1","Neighborhood":"Roxbury"},"geometry":{"type":"Point","coordinates":[-71.07497297030469,42.30871700813193]}},{"type":"Feature","properties":{"OBJECTID":14036,"Address":"Harold St. & Waumbeck St., Roxbury, MA","Notes":"need address verification & photo","AP_Name":"ROX-TROTTER-AP4","Neighborhood":"Roxbury"},"geometry":{"type":"Point","coordinates":[-71.0910081900787,42.31544155382179]}},{"type":"Feature","properties":{"OBJECTID":14037,"Address":"1163 Columbia Rd., South Boston, MA","Notes":"need address verification & photo","AP_Name":"SB-CURLEY-AP1","Neighborhood":"South Boston"},"geometry":{"type":"Point","coordinates":[-71.05158046121716,42.32902433015678]}},{"type":"Feature","properties":{"OBJECTID":14038,"Address":"1163 Columbia Rd., South  Boston, MA","Notes":"need address verification & photo","AP_Name":"SB-CURLEY-AP2","Neighborhood":"South Boston"},"geometry":{"type":"Point","coordinates":[-71.05144635083008,42.329155203291535]}},{"type":"Feature","properties":{"OBJECTID":14430,"Address":"2400 Washington St., Roxbury, MA","Notes":"need location verification & photo","AP_Name":"ROX-BPDB2-AP2","Neighborhood":"Roxbury"},"geometry":{"type":"Point","coordinates":[-71.08400668302501,42.32834176175183]}},{"type":"Feature","properties":{"OBJECTID":14431,"Address":"2400 Washington St., Roxbury, MA","Notes":"need location verification & photo","AP_Name":"ROX-BPDB2-AP3","Neighborhood":"Roxbury"},"geometry":{"type":"Point","coordinates":[-71.08404423440052,42.32809190896904]}},{"type":"Feature","properties":{"OBJECTID":14432,"Address":"65 Warren St., Roxbury, MA","Notes":"need location verification & photo","AP_Name":"ROX-BPL-AP1","Neighborhood":"Roxbury"},"geometry":{"type":"Point","coordinates":[-71.08364699848356,42.32804332618377]}},{"type":"Feature","properties":{"OBJECTID":14433,"Address":"8 Stanwood St., Roxbury, MA","Notes":"need address verification & photo","AP_Name":"ROX-GROVEHALL-AP6","Neighborhood":"Roxbury"},"geometry":{"type":"Point","coordinates":[-71.08177680846997,42.31022806289331]}},{"type":"Feature","properties":{"OBJECTID":14434,"Address":"476 Blue Hill Ave., Roxbury, MA","Notes":"need address verification & photo","AP_Name":"ROX-GROVEHALL-AP7","Neighborhood":"Roxbury"},"geometry":{"type":"Point","coordinates":[-71.0829677086354,42.308665027615184]}},{"type":"Feature","properties":{"OBJECTID":14435,"Address":"Oldfields Rd. & Columbia Rd., Roxbury, MA","Notes":"need address verification & photo","AP_Name":"ROX-GROVEHALL-AP8","Neighborhood":"Roxbury"},"geometry":{"type":"Point","coordinates":[-71.0777159436854,42.30643941939002]}},{"type":"Feature","properties":{"OBJECTID":14436,"Address":"Wayland St. & Balfour St., Roxbury, MA","Notes":"need address verification & photo","AP_Name":"ROX-GROVEHALL-AP9","Neighborhood":"Roxbury"},"geometry":{"type":"Point","coordinates":[-71.07640668958297,42.31416171839224]}},{"type":"Feature","properties":{"OBJECTID":14437,"Address":"906 Albany St., Roxbury, MA","Notes":"need address verification & photo","AP_Name":"ROX-ORCHARD-AP2","Neighborhood":"Roxbury"},"geometry":{"type":"Point","coordinates":[-71.0775344309974,42.33065646331768]}},{"type":"Feature","properties":{"OBJECTID":14438,"Address":"906 Albany St., Roxbury, MA","Notes":"need address verification & photo","AP_Name":"ROX-ORCHARD-AP3","Neighborhood":"Roxbury"},"geometry":{"type":"Point","coordinates":[-71.07725816401323,42.33083888821053]}},{"type":"Feature","properties":{"OBJECTID":14439,"Address":"95 G St., South Boston, MA","Notes":"need address verification & photo","AP_Name":"SB-HIGHSCHOOL-AP1","Neighborhood":"South Boston"},"geometry":{"type":"Point","coordinates":[-71.04506842011067,42.3325239292678]}},{"type":"Feature","properties":{"OBJECTID":14440,"Address":"95 G St., South Boston, MA","Notes":"need address verification & photo","AP_Name":"SB-HIGHSCHOOL-AP2","Neighborhood":"South Boston"},"geometry":{"type":"Point","coordinates":[-71.04512742954336,42.333269465331654]}},{"type":"Feature","properties":{"OBJECTID":14441,"Address":"95 G St., South Boston, MA","Notes":"need address verification & photo","AP_Name":"SB-HIGHSCHOOL-AP3","Neighborhood":"South Boston"},"geometry":{"type":"Point","coordinates":[-71.04465536036999,42.33291256082239]}},{"type":"Feature","properties":{"OBJECTID":14442,"Address":"745 E. 7th St., South Boston, MA","Notes":"need address verification & photo","AP_Name":"SB-PERRY-AP1","Neighborhood":"South Boston"},"geometry":{"type":"Point","coordinates":[-71.03020141444789,42.33191588797343]}},{"type":"Feature","properties":{"OBJECTID":14443,"Address":"Farragut Rd. & Day Blvd., South Boston, MA","Notes":"need address verification & photo","AP_Name":"SB-PERRY-AP3","Neighborhood":"South Boston"},"geometry":{"type":"Point","coordinates":[-71.02482894916139,42.333073855683175]}},{"type":"Feature","properties":{"OBJECTID":14833,"Address":"1406 Columbia Rd., South Boston, MA","Notes":"need address verification & photo","AP_Name":"SB-HIGHSCHOOL-GSTREET-AP4","Neighborhood":"South Boston"},"geometry":{"type":"Point","coordinates":[-71.04409209602558,42.33007311596739]}},{"type":"Feature","properties":{"OBJECTID":15234,"Address":"20 South St, Jamaica Plain","Notes":null,"AP_Name":"JP-Curtis Hall-BCYF-AP2","Neighborhood":null},"geometry":{"type":"Point","coordinates":[-71.11514356278704,42.30875975442665]}},{"type":"Feature","properties":{"OBJECTID":15235,"Address":"20 South St, Jamaica Plain","Notes":null,"AP_Name":"JP-Curtis Hall-BCYF-AP1","Neighborhood":null},"geometry":{"type":"Point","coordinates":[-71.1151578424068,42.30892876559789]}},{"type":"Feature","properties":{"OBJECTID":15634,"Address":"55 South St, Jamaica Plain","Notes":null,"AP_Name":"JP-Curtis Hall-BCYF-AP3","Neighborhood":null},"geometry":{"type":"Point","coordinates":[-71.11558426997722,42.30823043573192]}},{"type":"Feature","properties":{"OBJECTID":17236,"Address":"201 Sumner St, East Boston","Notes":null,"AP_Name":"EB-MAVERICKSQUARE","Neighborhood":null},"geometry":{"type":"Point","coordinates":[-71.03970407828926,42.368903859922945]}},{"type":"Feature","properties":{"OBJECTID":17635,"Address":"746 Centre Street, Jamaica Plain","Notes":null,"AP_Name":"JP-BFDE28-AP1","Neighborhood":null},"geometry":{"type":"Point","coordinates":[-71.11446984788351,42.310679024181084]}},{"type":"Feature","properties":{"OBJECTID":18035,"Address":"746 Centre St, Jamaica Plain","Notes":null,"AP_Name":"JP-BFDE28-AP2","Neighborhood":null},"geometry":{"type":"Point","coordinates":[-71.1145396362013,42.3105177463031]}},{"type":"Feature","properties":{"OBJECTID":18036,"Address":"761 Centre St, Jamaica Plain","Notes":null,"AP_Name":"JP-BFD28-AP3","Neighborhood":null},"geometry":{"type":"Point","coordinates":[-71.11521109723178,42.310025767003246]}},{"type":"Feature","properties":{"OBJECTID":18435,"Address":"25 Warren St, Brighton MA","Notes":null,"AP_Name":"AB-BRIGHTON-HIGH-AP1","Neighborhood":null},"geometry":{"type":"Point","coordinates":[-71.14610407271606,42.3491907525309]}},{"type":"Feature","properties":{"OBJECTID":18436,"Address":"25 Warren St, Brighton MA","Notes":null,"AP_Name":"AB-BRIGHTON-HIGH-AP2","Neighborhood":null},"geometry":{"type":"Point","coordinates":[-71.1455358433831,42.349056482730255]}},{"type":"Feature","properties":{"OBJECTID":18437,"Address":"25 Warren St, Brighton MA","Notes":null,"AP_Name":"AP-BRIGHTON-HIGH-AP3","Neighborhood":null},"geometry":{"type":"Point","coordinates":[-71.14485551418414,42.34887650273572]}}]}